stop_id,stop_code,stop_name,stop_desc,stop_lat,stop_lon,zone_id,stop_url,location_type,parent_station,stop_timezone,wheelchair_boarding
6262304,,Terminal / Juan Oldonovan,,-27.41197107,-70.26977469,,,0,,,0
6698372,,Los Carrera / Rafael Torreblanca,,-27.39484159,-70.2969929,,,0,,,0
6698373,,Juan O'donovan / Candelaria Goyenechea,,-27.40948544,-70.27170628,,,0,,,0
6698395,,Los Carrera / Pedro León Gallo,,-27.393595,-70.29854329,,,0,,,0
6698397,,Los Carrera / Pedro de Valdivia,,-27.38706666,-70.30516407,,,0,,,0
6698398,,Los Carrera / Diego de Almagro,,-27.38365525,-70.30827586,,,0,,,0
6698411,,Los Carrera / Estadio Kinross,,-27.41223305,-70.28256725,,,0,,,0
6698413,,Los Carrera / Cañete,,-27.41045974,-70.28474544,,,0,,,0
6698414,,Los Carrera / Cañete,,-27.41096064,-70.28467108,,,0,,,0
6698415,,Los Carrera / Ignacio Carrera Pinto,,-27.40782129,-70.28704497,,,0,,,0
6698416,,Los Carrera Padre Valeriano,,-27.40849247,-70.28678863,,,0,,,0
6698417,,Los Carrera / Celsa Vergara,,-27.40593197,-70.28854915,,,0,,,0
6698418,,Los Carrera / Celsa Vergara,,-27.40647665,-70.28845377,,,0,,,0
6699280,,"El Chañar, 1226-1262",,-27.35782727,-70.31125278,,,0,,,0
6699281,,Manuel Rodríguez /Colipi,,-27.36552394,-70.33019722,,,0,,,0
6699282,,Manuel Rodríguez / Chacabuco,,-27.36495701,-70.33102065,,,0,,,0
6699283,,Manuel Rodríguez / Maipu,,-27.36404359,-70.33216423,,,0,,,0
6699284,,Manuel Rodríguez / Maipu,,-27.36364382,-70.33267039,,,0,,,0
6699285,,Manuel Rodríguez / José Joaquín Vallejos,,-27.36657918,-70.32872468,,,0,,,0
6699286,,Manuel Rodríguez / Henriquez,,-27.36914019,-70.32525357,,,0,,,0
6699288,,Juan López / Henriquez,,-27.3705626,-70.32503227,,,0,,,0
6699296,,Juan López / H. Escobar,,-27.3720982,-70.32290161,,,0,,,0
6699297,,Los Carrera / Chañaral,,-27.37245825,-70.32216699,,,0,,,0
6699299,,Los Carrera / Los Héroes,,-27.37289137,-70.32145053,,,0,,,0
6699300,,Secundino Pérez / Juan Prieto,,-27.37060473,-70.32020867,,,0,,,0
6699301,,Colo Colo / Los Loros,,-27.36362524,-70.31620681,,,0,,,0
6699370,,Alameda Manuel Antonio Matta / Atacama,,-27.36252472,-70.34135163,,,0,,,0
6699371,,Juan Godoy /Alameda,,-27.36396607,-70.34251928,,,0,,,0
6699374,,Chañarcillo / Maipú,,-27.36767252,-70.33576548,,,0,,,0
6699375,,"Grumete Venancio Díaz / Los Loros, 1565",,-27.36524524,-70.31377405,,,0,,,0
6699376,,Colo Colo / Brasil,,-27.36742003,-70.32028914,,,0,,,0
6699377,,Henríquez / Gabriela Mistral,,-27.36787492,-70.32388841,,,0,,,0
6699378,,Henríquez / Manuel Rodriguez,,-27.36927176,-70.32488638,,,0,,,0
6703529,,Juan Martínez / A. Sepúlveda,,-27.35737227,-70.34702808,,,0,,,0
6703530,,Juan Martínez / Ayacucho,,-27.35622789,-70.34841968,,,0,,,0
6703532,,Juan Martínez / Ramón Freire,,-27.35328549,-70.35188069,,,0,,,0
6703533,,Juan Martínez / Batallones de Atacama,,-27.35944478,-70.34440488,,,0,,,0
6703535,,Panamericana Norte / Centenario,,-27.35686247,-70.35247028,,,0,,,0
6703536,,Panamericana Norte / Rómulo Peña,,-27.36112401,-70.3485167,,,0,,,0
6703537,,Copayapu / Batallones de Atacama,,-27.3620985,-70.3470093,,,0,,,0
6703538,,Alameda Manuel Antonio Matta / juan Godoy,,-27.36369927,-70.34243345,,,0,,,0
6703539,,Atacama / Yerbas Buenas,,-27.36590297,-70.33619779,,,0,,,0
6703541,,Atacama Maipú,,-27.36634602,-70.33554295,,,0,,,0
6703542,,Atacama / chacabuco,,-27.36692741,-70.33477718,,,0,,,0
6703544,,Atacama / José Joaquín Vallejos,,-27.36901358,-70.33220887,,,0,,,0
6703545,,José Joaquín Vallejos / Cacique Hualimia,,-27.36889359,-70.3317513,,,0,,,0
6703566,,Bernardo O'Higgins / Juan Antonio Ríos,,-27.37021409,-70.32856911,,,0,,,0
6703567,,"Bernardo O'Higgins, / Henriquez",,-27.37170709,-70.3266438,,,0,,,0
6703568,,Henríquez / Henrquez,,-27.3680181,-70.32357291,,,0,,,0
6703569,,Los Loros / Carlos Condell,,-27.36508802,-70.31451434,,,0,,,0
6703570,,El Chañar / Grumete Venancio Díaz,,-27.3624838,-70.30877927,,,0,,,0
6703573,,Copayapu / Jumbo,,-27.38237977,-70.31634984,,,0,,,0
6703575,,Copayapu / Los Estudiantes,,-27.37631936,-70.32274884,,,0,,,0
6703576,,Copayapu / Vicuña,,-27.37519836,-70.32504095,,,0,,,0
6703577,,Vicuña Bernardo O´Higgins,,-27.37374788,-70.32332658,,,0,,,0
6703580,,Manuel Rodríguez /Mendez,,-27.36874204,-70.32589763,,,0,,,0
6703587,,Manuel Rodríguez / Yerbas Buenas,,-27.36243438,-70.33410788,,,0,,,0
6703588,,Manuel Rodríguez / Yumbel,,-27.36144103,-70.33548921,,,0,,,0
6703589,,Rodríguez / Rodriguez,,-27.3611242,-70.33712804,,,0,,,0
6703590,,Juan Martínez / Alameda,,-27.36181741,-70.34134448,,,0,,,0
6703594,,Henríquez / Los Carreras,,-27.37047156,-70.3256914,,,0,,,0
6703595,,Henríquez / B. O´Higgins,,-27.37120955,-70.3261739,,,0,,,0
6703596,,Henríquez / Copayapu,,-27.37365864,-70.32765358,,,0,,,0
6703597,,Chañarcillo / Copayapu,,-27.37230221,-70.33018766,,,0,,,0
6703598,,Chañarcillo / Salas,,-27.37074594,-70.33203936,,,0,,,0
6703599,,Chañarcillo / Colipi,,-27.36928404,-70.33375986,,,0,,,0
6703600,,Chañarcillo / Chacabuco,,-27.36843329,-70.33481079,,,0,,,0
6703601,,Chañarcillo / Yerbas Buenas,,-27.36691821,-70.33692954,,,0,,,0
6703602,,Chañarcillo / Yumbel,,-27.36613678,-70.33820528,,,0,,,0
6703604,,Panamericana Norte / JV Blanco,,-27.36283695,-70.34577816,,,0,,,0
6703605,,Atacama / Alameda,,-27.36266544,-70.34068733,,,0,,,0
6703606,,Atacama / Colipi,,-27.36822038,-70.33319861,,,0,,,0
6703764,,Carlos Condell / Los Loros,,-27.36473529,-70.31435072,,,0,,,0
6703781,,Grumete Venancio Díaz / Río Manflas,,-27.36226763,-70.3079161,,,0,,,0
6703797,,Ramón Freire / Bencinera,,-27.36063047,-70.3493073,,,0,,,0
6703839,,Atacama / Henriquez,,-27.37279639,-70.32731498,,,0,,,0
6703840,,Bernardo O'Higgins / Conrado Araya,,-27.37573988,-70.32129228,,,0,,,0
6703865,,Los Aromos / Luís Flores,,-27.38056079,-70.32044739,,,0,,,0
6703866,,Copayapu / Carlos Van Buren,,-27.38114907,-70.31737894,,,0,,,0
6703867,,Circunvalación / Yumbel,,-27.36084549,-70.33460945,,,0,,,0
6703870,,Circunvalación / Yerbas Buenas,,-27.36022195,-70.33266215,,,0,,,0
6703945,,Vallenar / Cerro Blanco,,-27.37605686,-70.33930868,,,0,,,0
6703946,,Vallenar / Abundabcia,,-27.37669737,-70.33898413,,,0,,,0
6703947,,Vallenar / Agustinas,,-27.37745479,-70.33840477,,,0,,,0
6703964,,Manuel Rodríguez / Chacabuco,,-27.36455545,-70.33150749,,,0,,,0
6703966,,Manuel Rodríguez / José Joaquín Vallejos,,-27.36602965,-70.32952223,,,0,,,0
6703968,,José Joaquín Vallejos / Los Carreras,,-27.36783216,-70.33072112,,,0,,,0
6703996,,José Joaquín Vallejos / Atacama,,-27.36959585,-70.33240419,,,0,,,0
6703998,,Chacabuco / Chañarcillo,,-27.36811576,-70.33486809,,,0,,,0
6703999,,Chacabuco / Buena esperanza,,-27.36868133,-70.33543142,,,0,,,0
6704002,,Circunvalación / Yerbas buenas,,-27.36049036,-70.33338368,,,0,,,0
6704003,,Circunvalación / Los Carreras,,-27.36124684,-70.33868183,,,0,,,0
6704009,,Eleuterio Ramírez / Pje 1,,-27.3707186,-70.31032956,,,0,,,0
6704010,,Los Loros / Eleuterio Ramírez,,-27.37083101,-70.31089872,,,0,,,0
6704011,,Los Loros / Pablo Neruda,,-27.36933623,-70.31165749,,,0,,,0
6704012,,Los Loros / Grumete Venancio Díaz,,-27.36546439,-70.31372309,,,0,,,0
6704013,,Los Loros / Carlos Condell,,-27.36490937,-70.3143239,,,0,,,0
6704014,,Los Loros / Colo Colo,,-27.3636421,-70.31636238,,,0,,,0
6704015,,Los Loros / Manso de Velasco,,-27.36239864,-70.31845719,,,0,,,0
6704016,,Los Loros / Einstein,,-27.36179358,-70.31953543,,,0,,,0
6704017,,Los Loros / Lastarria,,-27.36120888,-70.32050294,,,0,,,0
6704018,,Lastarria / 19 de Mayo,,-27.36191984,-70.32147735,,,0,,,0
6704019,,Lastarria / Algarrobo,,-27.36307755,-70.32236516,,,0,,,0
6704020,,Lastarria / Monte Grande,,-27.36387078,-70.32297671,,,0,,,0
6704021,,Circunvalación / José Joaquín Vallejos,,-27.36214138,-70.32534242,,,0,,,0
6704022,,Circunvalación / Colipi,,-27.36136242,-70.3265065,,,0,,,0
6704032,,Chañarcillo / Chacabuco,,-27.368006,-70.33536047,,,0,,,0
6705392,,Alameda Manuel Antonio Matta / Bernardo O´Higgins,,-27.36170545,-70.3409797,,,0,,,0
6705403,,Bernardo O'Higgins / Henriquez,,-27.37207438,-70.32617122,,,0,,,0
6705404,,Los Carrera / Los Héroes,,-27.37303428,-70.32155246,,,0,,,0
6705411,,Los Carrera / Conrado Araya,,-27.37352689,-70.32069552,,,0,,,0
6705413,,Los Carrera / Luis Flores,,-27.37583296,-70.31674325,,,0,,,0
6705414,,Los Carrera / Carlos Van Buren,,-27.37828973,-70.3142933,,,0,,,0
6705416,,Los Carrera / Pedro Pablo Figueroa,,-27.38034298,-70.31196561,,,0,,,0
6705426,,Los Carrera / Pedro Pablo Figueroa,,-27.38022954,-70.3115505,,,0,,,0
6705427,,Los Carrera / Carlos Van Buren,,-27.37824573,-70.31394839,,,0,,,0
6705435,,Diego de Almagro / Los Carrera,,-27.38304014,-70.30830771,,,0,,,0
6705444,,Diego de Almagro / Los Carrera,,-27.38320685,-70.30825943,,,0,,,0
6705450,,Henríquez / Atacama,,-27.37241068,-70.32686878,,,0,,,0
6705452,,Henríquez / Los Carreras,,-27.3708221,-70.3259107,,,0,,,0
6705453,,Carlos Porcile / Puerto Huasco,,-27.37217442,-70.32244295,,,0,,,0
6705454,,Belisario López / Amador Pinto,,-27.37055709,-70.31972051,,,0,,,0
6705455,,Los Loros / Colo Colo,,-27.36383505,-70.31651795,,,0,,,0
6705456,,Los Loros / Manso de Velasco,,-27.36258664,-70.31864762,,,0,,,0
6705458,,Eusebio Lillo / Rivera Medina,,-27.35677194,-70.32258511,,,0,,,0
6705459,,Rivera Medina / Los Loros,,-27.35894214,-70.32418638,,,0,,,0
6705641,,Vallenar / Bramador,,-27.37453248,-70.33977538,,,0,,,0
6705642,,Vallenar / Cerro Blanco,,-27.37575436,-70.33929259,,,0,,,0
6705645,,Vallenar / Agustinas,,-27.37739305,-70.33861399,,,0,,,0
6705650,,Henríquez / Copayapu,,-27.37451792,-70.32820753,,,0,,,0
6705652,,Henríquez / San Ramón,,-27.37306763,-70.32694638,,,0,,,0
6705653,,Henríquez / Bernardo O´Higgnis,,-27.37206961,-70.32636166,,,0,,,0
6705656,,Circunvalación / Colo colo,,-27.36770825,-70.32038301,,,0,,,0
6705657,,Colo Colo / San Pedro,,-27.36565257,-70.31758279,,,0,,,0
6705658,,Colo Colo / Los Loros,,-27.36409805,-70.31638764,,,0,,,0
6705659,,Los Loros / Carlos Condell,,-27.36440675,-70.3154853,,,0,,,0
6705664,,El Chañar / Panguipulli,,-27.35589051,-70.31420857,,,0,,,0
6705665,,El Chañar / Andacollo,,-27.35691707,-70.31247854,,,0,,,0
6705666,,El Chañar / Saturnino Torres,,-27.35772795,-70.31104216,,,0,,,0
6705667,,El Chañar / Carlos Condell,,-27.36148867,-70.30900508,,,0,,,0
6705669,,El Palomar / Salitrera Carnaval,,-27.38984913,-70.32521099,,,0,,,0
6705670,,Del Río / Salitrera Cholita,,-27.38942521,-70.32683372,,,0,,,0
6714834,,Del Parque / Salitrera Independencia,,-27.38721037,-70.33169925,,,0,,,0
6714835,,Salitrera Rosario / Salitrera Independencia,,-27.38716988,-70.33062637,,,0,,,0
6714842,,Del Río / Salitrera Independencia,,-27.38626487,-70.32983512,,,0,,,0
6714843,,Del Río / Hijuela Fontanés,,-27.38784148,-70.32873541,,,0,,,0
6714848,,Del Parque / Fundo Palermo,,-27.38425955,-70.33370554,,,0,,,0
6715079,,Colo Colo / San Pedro,,-27.36560254,-70.3177008,,,0,,,0
6715090,,Del Río / Estadio,,-27.38481685,-70.33080876,,,0,,,0
6715091,,Circunvalación / Santiago Watt,,-27.35976161,-70.33100188,,,0,,,0
6715092,,Copayapu / Salas,,-27.371729,-70.33258438,,,0,,,0
6715093,,Copayapu / H. Videla Lira,,-27.37442016,-70.32712013,,,0,,,0
6715094,,Copayapu / Piloto. M. Arredondo,,-27.37551142,-70.32504737,,,0,,,0
6715095,,Copayapu / Los Estudiantes,,-27.37651893,-70.32299548,,,0,,,0
6715097,,Copayapu / Del Estadio,,-27.3772821,-70.32194478,,,0,,,0
6715098,,Copayapu / Luis Flores,,-27.37891739,-70.31949788,,,0,,,0
6715100,,Copayapu / Diego de Almagro,,-27.38721785,-70.31336158,,,0,,,0
6715101,,Copayapu / Francisco de Aguirre,,-27.39013035,-70.31194225,,,0,,,0
6715102,,Copayapu / Francisco de Aguirre,,-27.39004121,-70.31156602,,,0,,,0
6715103,,Copayapu / Pedro de Valdivia,,-27.39174748,-70.31016786,,,0,,,0
6715105,,Guillermo Toro Lorca / parad 1,,-27.40388952,-70.29345632,,,0,,,0
6715106,,Guillermo Toro Lorca / Los Carrera,,-27.4025586,-70.29159755,,,0,,,0
6715107,,Los Carrera / Sergio Bruno Pizarro,,-27.40410946,-70.29034155,,,0,,,0
6715108,,Totoral / Inca de Oro,,-27.41120458,-70.27780563,,,0,,,0
6715116,,Francisco Cortés Cartabio / Malgarejo,,-27.41349514,-70.27525216,,,0,,,0
6715117,,21 de Mayo / Francisco Cortés,,-27.4127235,-70.2739352,,,0,,,0
6715118,,Pedro Aguirre Cerda / Nueva Prat,,-27.41448326,-70.27275503,,,0,,,0
6715119,,Rahue / Panguipulli,,-27.40863062,-70.27095526,,,0,,,0
6715120,,Rahue / Quirihue,,-27.40798533,-70.2699843,,,0,,,0
6715122,,Rahue / Coelemu,,-27.40770912,-70.26957929,,,0,,,0
6715124,,Rahue / Quellón,,-27.40694239,-70.26895702,,,0,,,0
6715126,,Collipulli / Quellón,,-27.40649711,-70.26963294,,,0,,,0
6715128,,Pedro Aguirre Cerda / Robert Kennedy,,-27.41567137,-70.27380645,,,0,,,0
6715129,,Francisco Cortés Cartabio / Malgarejo,,-27.41358067,-70.27502954,,,0,,,0
6715131,,Los Carrera / Sergio Bruno Pizarro,,-27.40353486,-70.29041331,,,0,,,0
6715132,,Copayapu / El Inca,,-27.39351604,-70.30782223,,,0,,,0
6715135,,Copayapu / Francisco de Aguirre,,-27.38912971,-70.31254292,,,0,,,0
6715136,,Copayapu / Diego de Almagro,,-27.38600761,-70.31318075,,,0,,,0
6715137,,Copayapu / Pedro Pablo Figueroa,,-27.38306138,-70.31531632,,,0,,,0
6715138,,Copayapu / Carlos Van Buren,,-27.38070608,-70.31741918,,,0,,,0
6715139,,Copayapu / Luis Flores,,-27.37852916,-70.31941205,,,0,,,0
6715140,,Copayapu / Henriquez,,-27.3734935,-70.32825742,,,0,,,0
6716931,,Los Carrera / Guillermo Toro Lorca,,-27.40203495,-70.29152777,,,0,,,0
6716932,,Chañarcillo / Talcahuano,,-27.36485477,-70.33981025,,,0,,,0
6717077,,Cardenal Samoré / Juan Meller,,-27.3550899,-70.31851999,,,0,,,0
6717085,,Pablo Neruda / Andrés Sabella,,-27.36636499,-70.30998409,,,0,,,0
6717105,,Eleuterio Ramírez / Circunvalación,,-27.37312975,-70.31363994,,,0,,,0
6717106,,Luis Flores / Los Carrera,,-27.37556639,-70.31631947,,,0,,,0
6727551,,Henríquez / José M. Infante,,-27.36864846,-70.32445043,,,0,,,0
6727552,,Collipulli / Las Tinajas,,-27.40039897,-70.26522338,,,0,,,0
6727555,,Pedro Aguirre Cerda / Arturo Fernadez Vial,,-27.41242387,-70.27064681,,,0,,,0
6727558,,Inca de Oro / Totoral,,-27.41122858,-70.27757764,,,0,,,0
6727567,,21 de Mayo / Francisco Cortes,,-27.41255702,-70.27384132,,,0,,,0
6727576,,Los Carrera / Ricardo Vallejos,,-27.39992447,-70.29307418,,,0,,,0
6727577,,Los Carrera / Ricardo Vallejos,,-27.40043685,-70.29307144,,,0,,,0
6727597,,Cruce Norte / 20 de Mayo,,-27.41189517,-70.28045915,,,0,,,0
6727602,,Los Carrera / Rafael Zorraindo,,-27.39783924,-70.29497797,,,0,,,0
6727603,,Los Carrera / Rafael Zorraindo,,-27.39726541,-70.29509619,,,0,,,0
6727648,,Los Carrera / Rafael Torreblanca,,-27.39541018,-70.29690109,,,0,,,0
6727649,,Los Carrera / Pedro León Gallo,,-27.39400131,-70.29837069,,,0,,,0
6727650,,Los Carrera / José Joaquín Vallejos,,-27.39216887,-70.30081201,,,0,,,0
6727651,,Los Carrera / José Joaquín Vallejos,,-27.39164448,-70.3009063,,,0,,,0
6727655,,Los Carrera / El Inca,,-27.3900576,-70.30269229,,,0,,,0
6727656,,Los Carrera / El Inca,,-27.38972978,-70.30263748,,,0,,,0
6727658,,Los Carrera / Pedro de Valdivia,,-27.38681605,-70.30577152,,,0,,,0
6727659,,Los Carrera / Francisco de Aguirre,,-27.38568496,-70.30644952,,,0,,,0
6727660,,Los Carrera / Francisco de Aguirre,,-27.38527352,-70.30697179,,,0,,,0
6727661,,Los Carrera / Diego de Almagro,,-27.38386419,-70.30830771,,,0,,,0
6727744,,Los Carrera / Luis Flores,,-27.37553028,-70.31691492,,,0,,,0
6727745,,Los Carrera / Contado Araya,,-27.37410319,-70.31940787,,,0,,,0
6727748,,Borgoño / Pasaje 1,,-27.3575112,-70.34492181,,,0,,,0
6727749,,Borgoño / Pasaje 4,,-27.35572512,-70.34482319,,,0,,,0
6727750,,Borgoño / Aldunate,,-27.35266177,-70.34451945,,,0,,,0
6727751,,La Cruz / El Colorado,,-27.34990737,-70.34914333,,,0,,,0
6727752,,LA Cruz / Termas de Molicuo,,-27.35169985,-70.34695566,,,0,,,0
6727753,,Cancha Rayada / Juan Martinez,,-27.35252951,-70.35249926,,,0,,,0
6727756,,Ramón Freire / Vicente Alvarez,,-27.35635732,-70.35241093,,,0,,,0
6727759,,Atacama / Chacabuco,,-27.36778211,-70.33372998,,,0,,,0
6727761,,Bernardo O'Higgins / Vicuña,,-27.37416029,-70.323409,,,0,,,0
6727765,,Los Carrera / Contado Araya,,-27.37422026,-70.31947911,,,0,,,0
6727767,,Los Carrera / Eduardo Espina,,-27.38189861,-70.31006258,,,0,,,0
6728630,,Cruce Norte / 20 de Mayo,,-27.41208009,-70.28041165,,,0,,,0
6728631,,Inca de Oro / Inés de Suárez,,-27.41146155,-70.2777493,,,0,,,0
6728632,,Juan López / Ana Vallejos,,-27.4126475,-70.27549893,,,0,,,0
6728633,,Robert Kennedy / Pedro Aguirre Cerda,,-27.4158047,-70.27390033,,,0,,,0
6728634,,Pedro Aguirre Cerda / 21 de Mayo,,-27.4143404,-70.27245998,,,0,,,0
6728635,,Pedro Aguirre Cerda / Vicente Jarpa,,-27.41299275,-70.27122349,,,0,,,0
6728636,,Collipulli / Las Tinajas,,-27.40071073,-70.26446432,,,0,,,0
6728643,,Collipulli / Quellón,,-27.40643759,-70.26973754,,,0,,,0
6728644,,Terminal,,-27.3614982,-70.30555308,,,0,,,0
6728645,,Grumete Venancio Díaz / Río Manflas,,-27.36207944,-70.30774713,,,0,,,0
6728646,,Grumete Venancio Díaz / Curacas,,-27.36299894,-70.31033546,,,0,,,0
6728647,,Grumete Venancio Diaz / Trapiche,,-27.36397559,-70.31212449,,,0,,,0
6728679,,Carlos Condell / Changos,,-27.36307309,-70.31190356,,,0,,,0
6728700,,Carlos Condell / El Chañar,,-27.3614315,-70.30913115,,,0,,,0
6728701,,El Chañar / Giacinto Prato,,-27.35908507,-70.30949695,,,0,,,0
6728710,,Papa Juan XXIII / Monseñor Alejo Gálvez,,-27.35461362,-70.31700343,,,0,,,0
6728711,,Cardenal Samoré / Cardenal José María Caro,,-27.35519174,-70.3206456,,,0,,,0
6728721,,Los Loros / Lastarria,,-27.36132755,-70.32068962,,,0,,,0
6728729,,Circunvalación / Felipe Pinto,,-27.36909535,-70.31943164,,,0,,,0
6728733,,Wheelwright / Puerto Caldera,,-27.37156446,-70.32426685,,,0,,,0
6728734,,Henríquez / El Palomar,,-27.37832994,-70.33222025,,,0,,,0
6728735,,Camilo Henríquez / Del Río,,-27.38009717,-70.33408912,,,0,,,0
6728736,,Camilo Henríquez / Sur,,-27.3799725,-70.33537656,,,0,,,0
6728737,,Del Parque / Humberstone,,-27.38192467,-70.33550386,,,0,,,0
6728738,,Salitrera Independencia / Salitrera Reducto,,-27.38606645,-70.32875606,,,0,,,0
6728741,,El Palomar / La Producción,,-27.39362156,-70.32298262,,,0,,,0
6728743,,Del Río / Vicuña,,-27.38215775,-70.33262228,,,0,,,0
6728744,,Camilo Henríquez / El Palomar,,-27.37888559,-70.33247487,,,0,,,0
6728745,,Henríquez / Copayapu,,-27.37473617,-70.32810708,,,0,,,0
6728748,,Totoral / Tantacuna,,-27.40944247,-70.27823149,,,0,,,0
6728749,,Vichuquen / Pje Cierzo,,-27.40857347,-70.2814427,,,0,,,0
6728750,,Llanos / Algarrobal,,-27.40504221,-70.28105378,,,0,,,0
6728751,,Llanos de algarrobal / Llanos de Caleu,,-27.40652331,-70.28330147,,,0,,,0
6728752,,Ignacio Carrera Pinto / Pasaje Llanos de Machali,,-27.40636135,-70.28458583,,,0,,,0
6728754,,"Copayapu / Ricardo A. Vallejos,",,-27.40337275,-70.29709049,,,0,,,0
6728755,,Copayapu / Rafael Torreblanca,,-27.39918374,-70.30172825,,,0,,,0
6728757,,Copayapu / José Joaquín Vallejos,,-27.39574996,-70.30541429,,,0,,,0
6728763,,Copayapu / Jumbo,,-27.38210414,-70.31611025,,,0,,,0
6728766,,Juan Martínez / Chile Italia,,-27.35810405,-70.34610451,,,0,,,0
6728768,,Ramón Freire / Alameda,,-27.36435892,-70.34336686,,,0,,,0
6728769,,Maipú / Los Consejales,,-27.36095012,-70.32954544,,,0,,,0
6728770,,Manuel Rodríguez / Maipu,,-27.36386821,-70.33224642,,,0,,,0
6728771,,Copayapu / Henriquez,,-27.37365814,-70.32834649,,,0,,,0
6728772,,Copayapu / El Inca,,-27.39370218,-70.30805289,,,0,,,0
6728773,,Copayapu / José Joaquín Vallejos,,-27.39594071,-70.30558526,,,0,,,0
6728774,,Copayapu / Rafael Torreblanca,,-27.39940282,-70.30197501,,,0,,,0
6728775,,"Copayapu / Ricardo A. Vallejos,",,-27.40363197,-70.29727578,,,0,,,0
6728776,,Ignacio Carrera Pinto / Pasaje Llanos de Machali,,-27.40657074,-70.28459966,,,0,,,0
6728777,,Llanos de algarrobal / Llanos de Caleu,,-27.40593754,-70.28232783,,,0,,,0
6728778,,Vichuquen / Pje Cierzo,,-27.40863757,-70.28157949,,,0,,,0
6728779,,Totoral / Tantacuna,,-27.40958783,-70.27847618,,,0,,,0
6729100,,Atacama / Talcahuano,,-27.36423204,-70.33874518,,,0,,,0
6729101,,José Joaquín Vallejos / Diego Portales,,-27.36448447,-70.32738227,,,0,,,0
6729103,,Rivera Medina / 19 de Mayo,,-27.36049992,-70.32512116,,,0,,,0
6729104,,Rivera Medina / Eusebio Lillo,,-27.35703637,-70.32248318,,,0,,,0
6729105,,Cardenal Samoré / Cardenal José María Caro,,-27.35534974,-70.32066464,,,0,,,0
6729106,,Cardenal Samoré / Juan Meller,,-27.35521633,-70.31854838,,,0,,,0
6729107,,Papa Juan XXIII / Monseñor Alejo Gálvez,,-27.35458265,-70.31674057,,,0,,,0
6729108,,Cardenal Samoré / Padre José Cánovas,,-27.35497572,-70.31488985,,,0,,,0
6729109,,El Chañar / Ramón Carnicer,,-27.35544265,-70.31528413,,,0,,,0
6729110,,El Chañar / Giacinto Prato,,-27.3591754,-70.30970514,,,0,,,0
6729118,,Los Loros / Pablo Neruda,,-27.3689632,-70.3118588,,,0,,,0
6729122,,Luis Flores / Diego Double Almeyda,,-27.37475524,-70.31546577,,,0,,,0
6729127,,Carlos Van Buren / Los Aromos,,-27.3822632,-70.31820116,,,0,,,0
6729177,,Los Aromos / 3 Oriente,,-27.37921868,-70.32209027,,,0,,,0
6729178,,Los Aromos / 3 Oriente,,-27.3793889,-70.32225471,,,0,,,0
6729179,,Los Aromos / Luís Flores,,-27.38049886,-70.32035887,,,0,,,0
6729209,,Lastarria / Monte Grande,,-27.36397798,-70.32285333,,,0,,,0
6729213,,Eleuterio Ramírez / Covelina,,-27.37009055,-70.30894327,,,0,,,0
6729223,,El Chañar / Nantoquita,,-27.37129631,-70.30604331,,,0,,,0
6729224,,Villarrica / Parinacota,,-27.37333897,-70.30319809,,,0,,,0
6729225,,Villarrica / Los Loros,,-27.37498246,-70.3063792,,,0,,,0
6729226,,Los Loros / Diego de Almagro,,-27.38027279,-70.30467573,,,0,,,0
6729227,,Pedro Lagos / Leonora Latorre,,-27.38148251,-70.30231833,,,0,,,0
6729228,,Los Loros / Licancabur,,-27.37763837,-70.30498713,,,0,,,0
6729491,,Leonora Latorre / Dagoberto Godoy,,-27.38268623,-70.30357351,,,0,,,0
6729494,,Los Carrera / Eduardo Espina,,-27.38168734,-70.30998945,,,0,,,0
6729495,,Pablo Neruda / El Chañar,,-27.36381599,-70.30790001,,,0,,,0
6729496,,El Chañar / Grumete Venancio Díaz,,-27.36246773,-70.3086108,,,0,,,0
6729497,,Colo Colo / Julia Aravena,,-27.35846797,-70.31232496,,,0,,,0
6729498,,Colo Colo / Guacolda,,-27.36052969,-70.3138952,,,0,,,0
6729499,,Colo Colo / Carmen,,-27.36529213,-70.3173872,,,0,,,0
6729503,,Colo Colo / Guacolda,,-27.3605906,-70.31383038,,,0,,,0
6729504,,Colo Colo / Julia Aravena,,-27.35851335,-70.31225324,,,0,,,0
6729505,,Pablo Neruda / El Chañar,,-27.36390175,-70.30783564,,,0,,,0
6729526,,San Román / Miranda,,-27.37380243,-70.32570815,,,0,,,0
6729527,,Los Aromos / Carlos Van Buren,,-27.38279464,-70.3185457,,,0,,,0
6729528,,Los Aromos / Pedro Pablo Figueroa,,-27.38461441,-70.31685591,,,0,,,0
6729529,,Luis Flores / Circunvalación,,-27.37369471,-70.31402769,,,0,,,0
6729530,,Luis Flores / Los Carrera,,-27.37607353,-70.31644285,,,0,,,0
6729531,,Luis Flores / Copayapu,,-27.37845056,-70.31874955,,,0,,,0
6729532,,Eleuterio Ramírez / Baquedano,,-27.37208871,-70.3123779,,,0,,,0
6729534,,Pablo Neruda / Ramón Rosas,,-27.36633349,-70.30981277,,,0,,,0
6729535,,Carlos Condell / El Chañar,,-27.36144103,-70.30890048,,,0,,,0
6729594,,José. M Infante / Salas,,-27.36608997,-70.32762989,,,0,,,0
6729595,,José M. Infante / Henriquez,,-27.36796245,-70.32514307,,,0,,,0
6729596,,Henríquez Pasaje 6,,-27.36732472,-70.32302472,,,0,,,0
6729597,,Colo Colo / Serrano,,-27.36706969,-70.31956226,,,0,,,0
6729604,,Grumete Venancio Diaz / Trapiche,,-27.364135,-70.31204939,,,0,,,0
6729605,,Grumete Venancio Díaz / Curacas,,-27.36305849,-70.31024158,,,0,,,0
6747911,,Camilo Henríquez / Panamericana Norte,,-27.37986056,-70.33653796,,,0,,,0
6747913,,Panamericana Norte / Cerro Bramador,,-27.37189303,-70.33761164,,,0,,,0
6747914,,Ramón Freire / José Joaquín Vallejos,,-27.37045656,-70.3339757,,,0,,,0
6747922,,Tornini / La Paz,,-27.37104524,-70.33794122,,,0,,,0
6747924,,Vallenar / Bramador,,-27.3744253,-70.33993095,,,0,,,0
6747927,,Leonora Latorre / Dagoberto Godoy,,-27.3826162,-70.30331343,,,0,,,0
6747928,,Pedro Lagos / Leonora Latorre,,-27.38141821,-70.30222178,,,0,,,0
6748071,,Los Loros / Licancabur,,-27.37748337,-70.30482352,,,0,,,0
6748072,,Los Loros / Diego de Almagro,,-27.3802081,-70.30445337,,,0,,,0
6748073,,Villarrica / Los Loros,,-27.37511584,-70.306288,,,0,,,0
6748074,,Villarrica / Lascar,,-27.37337251,-70.3028816,,,0,,,0
6748079,,El Chañar / Nantoquita,,-27.37151939,-70.30556917,,,0,,,0
6748083,,El Chañar / Eleuterio Ramirez,,-27.36985203,-70.30814409,,,0,,,0